[
  {"name":"Nova York","country":"US","lat":40.7128,"lon":-74.006},
  {"name":"Los Angeles","country":"US","lat":34.0522,"lon":-118.2437},
  {"name":"Chicago","country":"US","lat":41.8781,"lon":-87.6298},
  {"name":"Miami","country":"US","lat":25.7617,"lon":-80.1918},
  {"name":"Seattle","country":"US","lat":47.6062,"lon":-122.3321},
  {"name":"Houston","country":"US","lat":29.7604,"lon":-95.3698},
  {"name":"Denver","country":"US","lat":39.7392,"lon":-104.9903},
  {"name":"Phoenix","country":"US","lat":33.4484,"lon":-112.074},
  {"name":"Anchorage","country":"US","lat":61.2181,"lon":-149.9003},
  {"name":"Honolulu","country":"US","lat":21.3069,"lon":-157.8583},
  {"name":"San Francisco","country":"US","lat":37.7749,"lon":-122.4194},
  {"name":"Boston","country":"US","lat":42.3601,"lon":-71.0589},
  {"name":"Atlanta","country":"US","lat":33.749,"lon":-84.388},
  {"name":"Dallas","country":"US","lat":32.7767,"lon":-96.797},
  {"name":"Minneapolis","country":"US","lat":44.9778,"lon":-93.265},
  {"name":"Detroit","country":"US","lat":42.3314,"lon":-83.0458},
  {"name":"Toronto","country":"CA","lat":43.6532,"lon":-79.3832},
  {"name":"Vancouver","country":"CA","lat":49.2827,"lon":-123.1207},
  {"name":"Montreal","country":"CA","lat":45.5017,"lon":-73.5673},
  {"name":"Calgary","country":"CA","lat":51.0447,"lon":-114.0719},
  {"name":"Ottawa","country":"CA","lat":45.4215,"lon":-75.6972},
  {"name":"Edmonton","country":"CA","lat":53.5461,"lon":-113.4938},
  {"name":"Winnipeg","country":"CA","lat":49.8951,"lon":-97.1384},
  {"name":"Halifax","country":"CA","lat":44.6488,"lon":-63.5752},
  {"name":"Quebec","country":"CA","lat":46.8139,"lon":-71.208},
  {"name":"Saskatoon","country":"CA","lat":52.1332,"lon":-106.67},
  {"name":"Regina","country":"CA","lat":50.4452,"lon":-104.6189},
  {"name":"St. John's","country":"CA","lat":47.5615,"lon":-52.7126},
  {"name":"Yellowknife","country":"CA","lat":62.454,"lon":-114.3718},
  {"name":"Whitehorse","country":"CA","lat":60.7212,"lon":-135.0568},
  {"name":"Iqaluit","country":"CA","lat":63.7467,"lon":-68.517},
  {"name":"Cidade do México","country":"MX","lat":19.4326,"lon":-99.1332},
  {"name":"Guadalajara","country":"MX","lat":20.6597,"lon":-103.3496},
  {"name":"Monterrey","country":"MX","lat":25.6866,"lon":-100.3161},
  {"name":"São Paulo","country":"BR","lat":-23.5505,"lon":-46.6333,"region":"SP · Sudeste"},
  {"name":"Rio de Janeiro","country":"BR","lat":-22.9068,"lon":-43.1729,"region":"RJ · Sudeste"},
  {"name":"Brasília","country":"BR","lat":-15.7934,"lon":-47.8822,"region":"DF · Centro-Oeste"},
  {"name":"Salvador","country":"BR","lat":-12.9714,"lon":-38.5014,"region":"BA · Nordeste"},
  {"name":"Fortaleza","country":"BR","lat":-3.7172,"lon":-38.5438,"region":"CE · Nordeste"},
  {"name":"Manaus","country":"BR","lat":-3.119,"lon":-60.0217,"region":"AM · Norte"},
  {"name":"Curitiba","country":"BR","lat":-25.429,"lon":-49.2671,"region":"PR · Sul"},
  {"name":"Recife","country":"BR","lat":-8.0476,"lon":-34.877,"region":"PE · Nordeste"},
  {"name":"Belo Horizonte","country":"BR","lat":-19.9167,"lon":-43.9345,"region":"MG · Sudeste"},
  {"name":"Porto Alegre","country":"BR","lat":-30.0346,"lon":-51.2177,"region":"RS · Sul"},
  {"name":"Belém","country":"BR","lat":-1.4558,"lon":-48.5024,"region":"PA · Norte"},
  {"name":"Goiânia","country":"BR","lat":-16.6869,"lon":-49.2648,"region":"GO · Centro-Oeste"},
  {"name":"Vitória","country":"BR","lat":-20.3155,"lon":-40.3128,"region":"ES · Sudeste"},
  {"name":"Aracaju","country":"BR","lat":-10.9091,"lon":-37.0677,"region":"SE · Nordeste"},
  {"name":"Maceió","country":"BR","lat":-9.6658,"lon":-35.7353,"region":"AL · Nordeste"},
  {"name":"São Luís","country":"BR","lat":-2.5297,"lon":-44.2825,"region":"MA · Nordeste"},
  {"name":"Teresina","country":"BR","lat":-5.0892,"lon":-42.8019,"region":"PI · Nordeste"},
  {"name":"João Pessoa","country":"BR","lat":-7.1195,"lon":-34.845,"region":"PB · Nordeste"},
  {"name":"Natal","country":"BR","lat":-5.7945,"lon":-35.211,"region":"RN · Nordeste"},
  {"name":"Cuiabá","country":"BR","lat":-15.6014,"lon":-56.0979,"region":"MT · Centro-Oeste"},
  {"name":"Campo Grande","country":"BR","lat":-20.4697,"lon":-54.6201,"region":"MS · Centro-Oeste"},
  {"name":"Porto Velho","country":"BR","lat":-8.7612,"lon":-63.9004,"region":"RO · Norte"},
  {"name":"Rio Branco","country":"BR","lat":-9.9747,"lon":-67.81,"region":"AC · Norte"},
  {"name":"Macapá","country":"BR","lat":0.0349,"lon":-51.0694,"region":"AP · Norte"},
  {"name":"Boa Vista","country":"BR","lat":2.8195,"lon":-60.6714,"region":"RR · Norte"},
  {"name":"Palmas","country":"BR","lat":-10.1689,"lon":-48.3317,"region":"TO · Norte"},
  {"name":"Buenos Aires","country":"AR","lat":-34.6037,"lon":-58.3816},
  {"name":"Córdoba","country":"AR","lat":-31.4201,"lon":-64.1888},
  {"name":"Santiago","country":"CL","lat":-33.4489,"lon":-70.6693},
  {"name":"Lima","country":"PE","lat":-12.0464,"lon":-77.0428},
  {"name":"Bogotá","country":"CO","lat":4.711,"lon":-74.0721},
  {"name":"Medellín","country":"CO","lat":6.2476,"lon":-75.5658},
  {"name":"Caracas","country":"VE","lat":10.4806,"lon":-66.9036},
  {"name":"Quito","country":"EC","lat":-0.1807,"lon":-78.4678},
  {"name":"Montevideo","country":"UY","lat":-34.9011,"lon":-56.1645},
  {"name":"Assunção","country":"PY","lat":-25.2637,"lon":-57.5759},
  {"name":"La Paz","country":"BO","lat":-16.5,"lon":-68.15},
  {"name":"Georgetown","country":"GY","lat":6.8013,"lon":-58.1553},
  {"name":"Paramaribo","country":"SR","lat":5.852,"lon":-55.2038},
  {"name":"Cayenne","country":"GF","lat":4.9372,"lon":-52.326},
  {"name":"Lisboa","country":"PT","lat":38.7223,"lon":-9.1393},
  {"name":"Porto","country":"PT","lat":41.1579,"lon":-8.6291},
  {"name":"Londres","country":"GB","lat":51.5074,"lon":-0.1278},
  {"name":"Edimburgo","country":"GB","lat":55.9533,"lon":-3.1883},
  {"name":"Paris","country":"FR","lat":48.8566,"lon":2.3522},
  {"name":"Marselha","country":"FR","lat":43.2965,"lon":5.3698},
  {"name":"Berlim","country":"DE","lat":52.52,"lon":13.405},
  {"name":"Munique","country":"DE","lat":48.1351,"lon":11.582},
  {"name":"Hamburgo","country":"DE","lat":53.5511,"lon":9.9937},
  {"name":"Madrid","country":"ES","lat":40.4168,"lon":-3.7038},
  {"name":"Barcelona","country":"ES","lat":41.3874,"lon":2.1686},
  {"name":"Roma","country":"IT","lat":41.9028,"lon":12.4964},
  {"name":"Milão","country":"IT","lat":45.4642,"lon":9.19},
  {"name":"Amesterdão","country":"NL","lat":52.3676,"lon":4.9041},
  {"name":"Bruxelas","country":"BE","lat":50.8503,"lon":4.3517},
  {"name":"Viena","country":"AT","lat":48.2082,"lon":16.3738},
  {"name":"Zurique","country":"CH","lat":47.3769,"lon":8.5417},
  {"name":"Estocolmo","country":"SE","lat":59.3293,"lon":18.0686},
  {"name":"Oslo","country":"NO","lat":59.9139,"lon":10.7522},
  {"name":"Copenhaga","country":"DK","lat":55.6761,"lon":12.5683},
  {"name":"Helsínquia","country":"FI","lat":60.1699,"lon":24.9384},
  {"name":"Dublin","country":"IE","lat":53.3498,"lon":-6.2603},
  {"name":"Varsóvia","country":"PL","lat":52.2297,"lon":21.0122},
  {"name":"Praga","country":"CZ","lat":50.0755,"lon":14.4378},
  {"name":"Budapeste","country":"HU","lat":47.4979,"lon":19.0402},
  {"name":"Atenas","country":"GR","lat":37.9838,"lon":23.7275},
  {"name":"Moscovo","country":"RU","lat":55.7558,"lon":37.6173},
  {"name":"São Petersburgo","country":"RU","lat":59.9343,"lon":30.3351},
  {"name":"Novosibirsk","country":"RU","lat":55.0084,"lon":82.9357},
  {"name":"Vladivostok","country":"RU","lat":43.1332,"lon":131.9113},
  {"name":"Krasnodar","country":"RU","lat":45.0355,"lon":38.9753},
  {"name":"Ecaterimburgo","country":"RU","lat":56.8389,"lon":60.6057},
  {"name":"Cazã","country":"RU","lat":55.8304,"lon":49.0661},
  {"name":"Nijni Novgorod","country":"RU","lat":56.2965,"lon":43.9361},
  {"name":"Samara","country":"RU","lat":53.1959,"lon":50.1002},
  {"name":"Chelyabinsk","country":"RU","lat":55.1644,"lon":61.4368},
  {"name":"Omsk","country":"RU","lat":54.9885,"lon":73.3242},
  {"name":"Perm","country":"RU","lat":58.0105,"lon":56.2502},
  {"name":"Irkutsk","country":"RU","lat":52.2855,"lon":104.289},
  {"name":"Murmansk","country":"RU","lat":68.9585,"lon":33.0827},
  {"name":"Kaliningrado","country":"RU","lat":54.7104,"lon":20.4522},
  {"name":"Yakutsk","country":"RU","lat":62.0355,"lon":129.6755},
  {"name":"Istambul","country":"TR","lat":41.0082,"lon":28.9784},
  {"name":"Ancara","country":"TR","lat":39.9334,"lon":32.8597},
  {"name":"Tóquio","country":"JP","lat":35.6762,"lon":139.6503},
  {"name":"Osaka","country":"JP","lat":34.6937,"lon":135.5023},
  {"name":"Pequim","country":"CN","lat":39.9042,"lon":116.4074},
  {"name":"Xangai","country":"CN","lat":31.2304,"lon":121.4737},
  {"name":"Guangzhou","country":"CN","lat":23.1291,"lon":113.2644},
  {"name":"Shenzhen","country":"CN","lat":22.5431,"lon":114.0579},
  {"name":"Chengdu","country":"CN","lat":30.5728,"lon":104.0668},
  {"name":"Wuhan","country":"CN","lat":30.5928,"lon":114.3055},
  {"name":"Chongqing","country":"CN","lat":29.4316,"lon":106.9123},
  {"name":"Harbin","country":"CN","lat":45.8038,"lon":126.535},
  {"name":"Xian","country":"CN","lat":34.3416,"lon":108.9398},
  {"name":"Hangzhou","country":"CN","lat":30.2741,"lon":120.1551},
  {"name":"Nanjing","country":"CN","lat":32.0603,"lon":118.7969},
  {"name":"Kunming","country":"CN","lat":25.0389,"lon":102.7183},
  {"name":"Urumqi","country":"CN","lat":43.8256,"lon":87.6168},
  {"name":"Lhasa","country":"CN","lat":29.65,"lon":91.1},
  {"name":"Hong Kong","country":"HK","lat":22.3193,"lon":114.1694},
  {"name":"Seul","country":"KR","lat":37.5665,"lon":126.978},
  {"name":"Busan","country":"KR","lat":35.1796,"lon":129.0756},
  {"name":"Taipé","country":"TW","lat":25.033,"lon":121.5654},
  {"name":"Bangkok","country":"TH","lat":13.7563,"lon":100.5018},
  {"name":"Singapura","country":"SG","lat":1.3521,"lon":103.8198},
  {"name":"Kuala Lumpur","country":"MY","lat":3.139,"lon":101.6869},
  {"name":"Jacarta","country":"ID","lat":-6.2088,"lon":106.8456},
  {"name":"Manila","country":"PH","lat":14.5995,"lon":120.9842},
  {"name":"Hanói","country":"VN","lat":21.0278,"lon":105.8342},
  {"name":"Ho Chi Minh","country":"VN","lat":10.8231,"lon":106.6297},
  {"name":"Nova Déli","country":"IN","lat":28.7041,"lon":77.1025},
  {"name":"Mumbai","country":"IN","lat":19.076,"lon":72.8777},
  {"name":"Bangalore","country":"IN","lat":12.9716,"lon":77.5946},
  {"name":"Chennai","country":"IN","lat":13.0827,"lon":80.2707},
  {"name":"Kolkata","country":"IN","lat":22.5726,"lon":88.3639},
  {"name":"Hyderabad","country":"IN","lat":17.385,"lon":78.4867},
  {"name":"Colombo","country":"LK","lat":6.9271,"lon":79.8612},
  {"name":"Katmandu","country":"NP","lat":27.7172,"lon":85.324},
  {"name":"Dhaka","country":"BD","lat":23.8103,"lon":90.4125},
  {"name":"Islamabad","country":"PK","lat":33.6844,"lon":73.0479},
  {"name":"Karachi","country":"PK","lat":24.8607,"lon":67.0011},
  {"name":"Kabul","country":"AF","lat":34.5553,"lon":69.2075},
  {"name":"Dushanbe","country":"TJ","lat":38.5598,"lon":68.774},
  {"name":"Bishkek","country":"KG","lat":42.8746,"lon":74.5698},
  {"name":"Tashkent","country":"UZ","lat":41.2995,"lon":69.2401},
  {"name":"Astana","country":"KZ","lat":51.1694,"lon":71.4491},
  {"name":"Ulaanbaatar","country":"MN","lat":47.8864,"lon":106.9057},
  {"name":"Phnom Penh","country":"KH","lat":11.5564,"lon":104.9282},
  {"name":"Vientiane","country":"LA","lat":17.9757,"lon":102.6331},
  {"name":"Yangon","country":"MM","lat":16.8661,"lon":96.1951},
  {"name":"Sydney","country":"AU","lat":-33.8688,"lon":151.2093},
  {"name":"Melbourne","country":"AU","lat":-37.8136,"lon":144.9631},
  {"name":"Brisbane","country":"AU","lat":-27.4698,"lon":153.0251},
  {"name":"Perth","country":"AU","lat":-31.9505,"lon":115.8605},
  {"name":"Adelaide","country":"AU","lat":-34.9285,"lon":138.6007},
  {"name":"Auckland","country":"NZ","lat":-36.8485,"lon":174.7633},
  {"name":"Wellington","country":"NZ","lat":-41.2865,"lon":174.7762},
  {"name":"Port Moresby","country":"PG","lat":-6.3149,"lon":143.9556},
  {"name":"Suva","country":"FJ","lat":-18.1416,"lon":178.4419},
  {"name":"Nuuk","country":"GL","lat":64.1743,"lon":-51.7395},
  {"name":"McMurdo","country":"AQ","lat":-77.8419,"lon":166.6863},
  {"name":"Cairo","country":"EG","lat":30.0444,"lon":31.2357},
  {"name":"Alexandria","country":"EG","lat":31.2001,"lon":29.9187},
  {"name":"Cidade do Cabo","country":"ZA","lat":-33.9249,"lon":18.4241},
  {"name":"Joanesburgo","country":"ZA","lat":-26.2041,"lon":28.0473},
  {"name":"Durban","country":"ZA","lat":-29.8587,"lon":31.0218},
  {"name":"Lagos","country":"NG","lat":6.5244,"lon":3.3792},
  {"name":"Abuja","country":"NG","lat":9.0579,"lon":7.4951},
  {"name":"Nairobi","country":"KE","lat":-1.2921,"lon":36.8219},
  {"name":"Casablanca","country":"MA","lat":33.5731,"lon":-7.5898},
  {"name":"Acra","country":"GH","lat":5.6037,"lon":-0.187},
  {"name":"Dakar","country":"SN","lat":14.7167,"lon":-17.4677},
  {"name":"Addis Abeba","country":"ET","lat":9.025,"lon":38.7469},
  {"name":"Dar es Salaam","country":"TZ","lat":-6.7924,"lon":39.2083},
  {"name":"Khartoum","country":"SD","lat":15.5007,"lon":32.5599},
  {"name":"Djibuti","country":"DJ","lat":11.5721,"lon":43.1456},
  {"name":"Mogadíscio","country":"SO","lat":2.0469,"lon":45.3182},
  {"name":"Kampala","country":"UG","lat":0.3476,"lon":32.5825},
  {"name":"Kigali","country":"RW","lat":-1.9403,"lon":29.8739},
  {"name":"Luanda","country":"AO","lat":-8.839,"lon":13.2894},
  {"name":"Maputo","country":"MZ","lat":-25.9692,"lon":32.5732},
  {"name":"Harare","country":"ZW","lat":-17.8252,"lon":31.0335},
  {"name":"Lusaka","country":"ZM","lat":-15.3875,"lon":28.3228},
  {"name":"Gaborone","country":"BW","lat":-24.6282,"lon":25.9231},
  {"name":"Windhoek","country":"NA","lat":-22.5609,"lon":17.0658},
  {"name":"Antananarivo","country":"MG","lat":-18.8792,"lon":47.5079},
  {"name":"Lilongwe","country":"MW","lat":-13.9626,"lon":33.7741},
  {"name":"Kinshasa","country":"CD","lat":-4.4419,"lon":15.2663},
  {"name":"Brazzaville","country":"CG","lat":-4.2634,"lon":15.2429},
  {"name":"Yaoundé","country":"CM","lat":3.848,"lon":11.5021},
  {"name":"N'Djamena","country":"TD","lat":12.1348,"lon":15.0557},
  {"name":"Niamey","country":"NE","lat":13.5127,"lon":2.1128},
  {"name":"Bamako","country":"ML","lat":12.6392,"lon":-8.0029},
  {"name":"Ouagadougou","country":"BF","lat":12.3714,"lon":-1.5197},
  {"name":"Conakry","country":"GN","lat":9.6412,"lon":-13.5784},
  {"name":"Freetown","country":"SL","lat":8.4841,"lon":-13.2344},
  {"name":"Monróvia","country":"LR","lat":6.3004,"lon":-10.7969},
  {"name":"Abidjan","country":"CI","lat":5.3600,"lon":-4.0083},
  {"name":"Lomé","country":"TG","lat":6.1256,"lon":1.2254},
  {"name":"Porto-Novo","country":"BJ","lat":6.4969,"lon":2.6289},
  {"name":"Malabo","country":"GQ","lat":3.7504,"lon":8.7371},
  {"name":"Libreville","country":"GA","lat":0.3833,"lon":9.4586},
  {"name":"Bangui","country":"CF","lat":4.3947,"lon":18.5582},
  {"name":"Tripoli","country":"LY","lat":32.8872,"lon":13.1913},
  {"name":"Tunis","country":"TN","lat":36.8065,"lon":10.1815},
  {"name":"Argel","country":"DZ","lat":36.7538,"lon":3.0588},
  {"name":"Nouakchott","country":"MR","lat":18.0858,"lon":-15.9785},
  {"name":"Asmara","country":"ER","lat":15.3389,"lon":38.9318},
  {"name":"Juba","country":"SS","lat":4.8594,"lon":31.5713},
  {"name":"Dubai","country":"AE","lat":25.2048,"lon":55.2708},
  {"name":"Riade","country":"SA","lat":24.7136,"lon":46.6753},
  {"name":"Jidá","country":"SA","lat":21.4858,"lon":39.1925},
  {"name":"Teerão","country":"IR","lat":35.6892,"lon":51.389},
  {"name":"Bagdá","country":"IQ","lat":33.3152,"lon":44.3661},
  {"name":"Beirute","country":"LB","lat":33.8938,"lon":35.5018},
  {"name":"Tel Aviv","country":"IL","lat":32.0853,"lon":34.7818},
  {"name":"Amã","country":"JO","lat":31.9454,"lon":35.9284},
  {"name":"Kuwait City","country":"KW","lat":29.3759,"lon":47.9774},
  {"name":"Doha","country":"QA","lat":25.2854,"lon":51.531},
  {"name":"Manama","country":"BH","lat":26.2285,"lon":50.586},
  {"name":"Maskat","country":"OM","lat":23.5859,"lon":58.4059},
  {"name":"Sana'a","country":"YE","lat":15.3694,"lon":44.191},
  {"name":"Nicósia","country":"CY","lat":35.1856,"lon":33.3823},
  {"name":"Tbilisi","country":"GE","lat":41.7151,"lon":44.8271},
  {"name":"Erevan","country":"AM","lat":40.1792,"lon":44.4991},
  {"name":"Baku","country":"AZ","lat":40.4093,"lon":49.8671},
  {"name":"Reykjavik","country":"IS","lat":64.1466,"lon":-21.9426},
  {"name":"Bucareste","country":"RO","lat":44.4268,"lon":26.1025},
  {"name":"Sófia","country":"BG","lat":42.6977,"lon":23.3219},
  {"name":"Belgrado","country":"RS","lat":44.7866,"lon":20.4489},
  {"name":"Zagreb","country":"HR","lat":45.815,"lon":15.9819},
  {"name":"Sarajevo","country":"BA","lat":43.8563,"lon":18.4131},
  {"name":"Tirana","country":"AL","lat":41.3275,"lon":19.8187},
  {"name":"Skopje","country":"MK","lat":41.9981,"lon":21.4254},
  {"name":"Podgorica","country":"ME","lat":42.4304,"lon":19.2594},
  {"name":"Liubliana","country":"SI","lat":46.0569,"lon":14.5058},
  {"name":"Bratislava","country":"SK","lat":48.1486,"lon":17.1077},
  {"name":"Tallinn","country":"EE","lat":59.437,"lon":24.7536},
  {"name":"Riga","country":"LV","lat":56.9496,"lon":24.1052},
  {"name":"Vilnius","country":"LT","lat":54.6872,"lon":25.2797},
  {"name":"Chisinau","country":"MD","lat":47.0105,"lon":28.8638},
  {"name":"Minsk","country":"BY","lat":53.9045,"lon":27.5615},
  {"name":"Luxemburgo","country":"LU","lat":49.6116,"lon":6.1319},
  {"name":"Valletta","country":"MT","lat":35.8989,"lon":14.5146},
  {"name":"San Marino","country":"SM","lat":43.9424,"lon":12.4578},
  {"name":"Vaticano","country":"VA","lat":41.9029,"lon":12.4534},
  {"name":"Havana","country":"CU","lat":23.1136,"lon":-82.3666},
  {"name":"Kingston","country":"JM","lat":18.0179,"lon":-76.8099},
  {"name":"Santo Domingo","country":"DO","lat":18.4861,"lon":-69.9312},
  {"name":"Port-au-Prince","country":"HT","lat":18.5944,"lon":-72.3074},
  {"name":"Nassau","country":"BS","lat":25.0343,"lon":-77.3963},
  {"name":"Bridgetown","country":"BB","lat":13.0969,"lon":-59.6145},
  {"name":"Tegucigalpa","country":"HN","lat":14.0723,"lon":-87.1921},
  {"name":"San José","country":"CR","lat":9.9281,"lon":-84.0907},
  {"name":"Panamá","country":"PA","lat":8.9824,"lon":-79.5199},
  {"name":"Guatemala","country":"GT","lat":14.6349,"lon":-90.5069},
  {"name":"Manágua","country":"NI","lat":12.115,"lon":-86.2362},
  {"name":"San Salvador","country":"SV","lat":13.6929,"lon":-89.2182},
  {"name":"Belmopan","country":"BZ","lat":17.251,"lon":-88.759},
  {"name":"Thimphu","country":"BT","lat":27.4728,"lon":89.6393},
  {"name":"Dili","country":"TL","lat":-8.5569,"lon":125.5603},

  {"name":"Fairbanks","country":"US","lat":64.8378,"lon":-147.7164},
  {"name":"Juneau","country":"US","lat":58.3005,"lon":-134.4197},
  {"name":"Utqiagvik","country":"US","lat":71.2906,"lon":-156.7886},
  {"name":"Nome","country":"US","lat":64.5011,"lon":-165.4064},
  {"name":"Kotzebue","country":"US","lat":66.8984,"lon":-162.6025},
  {"name":"Bethel","country":"US","lat":60.7922,"lon":-161.7558},

  {"name":"Ilulissat","country":"GL","lat":69.2198,"lon":-51.0986},
  {"name":"Sisimiut","country":"GL","lat":66.9395,"lon":-53.6735},
  {"name":"Qaqortoq","country":"GL","lat":60.7168,"lon":-46.0294},
  {"name":"Aasiaat","country":"GL","lat":68.7068,"lon":-52.8694},
  {"name":"Maniitsoq","country":"GL","lat":65.4201,"lon":-52.8946},
  {"name":"Narsaq","country":"GL","lat":60.9168,"lon":-46.0499},
  {"name":"Tasiilaq","country":"GL","lat":65.6024,"lon":-37.6357},

  {"name":"Tórshavn","country":"FO","lat":62.0107,"lon":-6.7716},
  {"name":"Longyearbyen","country":"SJ","lat":78.2232,"lon":15.6267},
  {"name":"Lerwick","country":"GB","lat":60.1545,"lon":-1.1494},
  {"name":"Birðoy","country":"FO","lat":62.2625,"lon":-6.5897},
  {"name":"Klaksvík","country":"FO","lat":62.2278,"lon":-6.5828},

  {"name":"Pointe-Noire","country":"CG","lat":-4.7692,"lon":11.8664},
  {"name":"Lubumbashi","country":"CD","lat":-11.6876,"lon":27.5026},
  {"name":"Kisangani","country":"CD","lat":0.5153,"lon":25.191},
  {"name":"Mbuji-Mayi","country":"CD","lat":-6.1504,"lon":23.5833},
  {"name":"Goma","country":"CD","lat":-1.6771,"lon":29.2228},
  {"name":"Bukavu","country":"CD","lat":-2.5015,"lon":28.8446},
  {"name":"Kananga","country":"CD","lat":-5.8958,"lon":22.4166},
  {"name":"Matadi","country":"CD","lat":-5.8304,"lon":13.4564},
  {"name":"Mbandaka","country":"CD","lat":1.5622,"lon":18.2638},
  {"name":"Gemena","country":"CD","lat":3.2564,"lon":19.7714},
  {"name":"Boma","country":"CD","lat":-5.8528,"lon":13.0555},
  {"name":"Bumba","country":"CD","lat":2.1854,"lon":22.4664},
  {"name":"Isiro","country":"CD","lat":2.7616,"lon":27.6151},
  {"name":"Bunia","country":"CD","lat":1.5569,"lon":30.2543},
  {"name":"Lisala","country":"CD","lat":2.1496,"lon":21.5143},
  {"name":"Yangambi","country":"CD","lat":0.7663,"lon":24.4376},
  {"name":"Kalemie","country":"CD","lat":-5.0509,"lon":29.1833},
  {"name":"Uvira","country":"CD","lat":-3.3721,"lon":29.1358},

  {"name":"Abéché","country":"TD","lat":13.8378,"lon":20.9121},
  {"name":"Moundou","country":"TD","lat":8.5675,"lon":16.0742},
  {"name":"Sarh","country":"TD","lat":9.1481,"lon":18.3936},

  {"name":"Bujumbura","country":"BI","lat":-3.3822,"lon":29.3644},
  {"name":"Zanzibar City","country":"TZ","lat":-6.1659,"lon":39.2026},
  {"name":"Mwanza","country":"TZ","lat":-2.5164,"lon":32.9175},
  {"name":"Arusha","country":"TZ","lat":-3.3869,"lon":36.683},
  {"name":"Moshi","country":"TZ","lat":-3.3327,"lon":37.3333},
  {"name":"Dodoma","country":"TZ","lat":-6.1722,"lon":35.7498},

  {"name":"Kaduna","country":"NG","lat":10.5105,"lon":7.4165},
  {"name":"Kano","country":"NG","lat":12.0022,"lon":8.592},
  {"name":"Ibadan","country":"NG","lat":7.3775,"lon":3.947},
  {"name":"Port Harcourt","country":"NG","lat":4.8156,"lon":7.0498},
  {"name":"Enugu","country":"NG","lat":6.4413,"lon":7.4988},
  {"name":"Jos","country":"NG","lat":9.8965,"lon":8.8583},
  {"name":"Maiduguri","country":"NG","lat":11.8464,"lon":13.1603},
  {"name":"Benin City","country":"NG","lat":6.335,"lon":5.6276},
  {"name":"Calabar","country":"NG","lat":4.9584,"lon":8.326},

  {"name":"Bamenda","country":"CM","lat":5.9631,"lon":10.1591},
  {"name":"Garoua","country":"CM","lat":9.3015,"lon":13.3974},
  {"name":"Maroua","country":"CM","lat":10.5924,"lon":14.3165},
  {"name":"Kumbo","country":"CM","lat":6.205,"lon":10.6591},

  {"name":"Tamale","country":"GH","lat":9.4034,"lon":-0.8393},
  {"name":"Kumasi","country":"GH","lat":6.6885,"lon":-1.6244},
  {"name":"Cape Coast","country":"GH","lat":5.1315,"lon":-1.2795},

  {"name":"Bobo-Dioulasso","country":"BF","lat":11.1771,"lon":-4.2979},

  {"name":"Zinder","country":"NE","lat":13.8053,"lon":8.9883},
  {"name":"Maradi","country":"NE","lat":13.5,"lon":7.1017},

  {"name":"Sikasso","country":"ML","lat":11.3175,"lon":-5.6664},
  {"name":"Ségou","country":"ML","lat":13.4317,"lon":-6.3637},

  {"name":"Kankan","country":"GN","lat":10.3878,"lon":-9.3026},

  {"name":"Bo","country":"SL","lat":7.9647,"lon":-11.7413},

  {"name":"Nouadhibou","country":"MR","lat":20.942,"lon":-17.0383},

  {"name":"Lamu","country":"KE","lat":-2.2717,"lon":40.902},
  {"name":"Eldoret","country":"KE","lat":0.5143,"lon":35.2698},
  {"name":"Kisumu","country":"KE","lat":-0.1022,"lon":34.7617},
  {"name":"Mombasa","country":"KE","lat":-4.0435,"lon":39.6682},

  {"name":"Dire Dawa","country":"ET","lat":9.5931,"lon":41.8529},
  {"name":"Mekelle","country":"ET","lat":13.4967,"lon":39.4753},
  {"name":"Hawassa","country":"ET","lat":7.0621,"lon":38.4764},

  {"name":"Beira","country":"MZ","lat":-19.8436,"lon":34.8389},
  {"name":"Nampula","country":"MZ","lat":-15.1164,"lon":39.2666},

  {"name":"Toliara","country":"MG","lat":-23.3833,"lon":43.6667},
  {"name":"Antsiranana","country":"MG","lat":-12.2787,"lon":49.2917},
  {"name":"Fianarantsoa","country":"MG","lat":-21.4333,"lon":47.0833},

  {"name":"Maseru","country":"LS","lat":-29.3167,"lon":27.4833},
  {"name":"Manzini","country":"SZ","lat":-26.4833,"lon":31.3833},

  {"name":"Moroni","country":"KM","lat":-11.7016,"lon":43.2551},
  {"name":"Mamoudzou","country":"YT","lat":-12.7871,"lon":45.2753},

  {"name":"Praia","country":"CV","lat":14.933,"lon":-23.5133},

  {"name":"São Tomé","country":"ST","lat":0.3302,"lon":6.7333}
]
